property_id,full_address,address_line1,address_line2,city,state,state_fips,zip_code,county,county_fips,latitude,longitude,property_type,bedrooms,bathrooms,square_footage,year_built,features,tax_assessments,property_taxes,lot_size,assessor_id,legal_description,subdivision,owner,owner_occupied
"7011-W-Parmer-Ln,-Austin,-TX-78729","7011 W Parmer Ln, Austin, TX 78729",7011 W Parmer Ln,,Austin,TX,48,78729,Williamson,491,30.450651,-97.749853,Apartment,1.0,1.0,650.0,2000.0,,,,,,,,,
"5200-N-Lamar-Blvd,-Austin,-TX-78751","5200 N Lamar Blvd, Austin, TX 78751",5200 N Lamar Blvd,,Austin,TX,48,78751,Travis,453,30.320159,-97.731593,Single Family,1.0,1.0,505.0,1984.0,,,,,,,,,
"1301-W-5th-St,-Austin,-TX-78703","1301 W 5th St, Austin, TX 78703",1301 W 5th St,,Austin,TX,48,78703,Travis,453,30.271746,-97.759877,Apartment,1.0,1.0,735.0,2019.0,,,,,,,,,
"1044-Camino-Ln,-Costa,-Austin,-TX-78752","1044 Camino Ln, Costa, Austin, TX 78752",1044 Camino Ln,Costa,Austin,TX,48,78752,Travis,453,30.325656,-97.699362,Apartment,1.0,1.0,563.0,1984.0,,,,,,,,,
"800-W-38th-St,-Austin,-TX-78705","800 W 38th St, Austin, TX 78705",800 W 38th St,,Austin,TX,48,78705,Travis,453,30.304715,-97.741423,Apartment,1.0,1.0,678.0,1997.0,,,,,,,,,
"8801-N-Fm-620-Rd,-Austin,-TX-78726","8801 N Fm 620 Rd, Austin, TX 78726",8801 N Fm 620 Rd,,Austin,TX,48,78726,Travis,453,30.427063,-97.839719,Apartment,1.0,1.0,692.0,1998.0,{'unitCount': 300},,,,,,,,
"2104-E-Anderson-Ln,-Austin,-TX-78752","2104 E Anderson Ln, Austin, TX 78752",2104 E Anderson Ln,,Austin,TX,48,78752,Travis,453,30.331529,-97.677648,Apartment,2.0,1.0,782.0,1984.0,{'unitCount': 290},"{'2013': {'year': 2013, 'value': 5500000, 'land': 1336968, 'improvements': 4163032}, '2014': {'year': 2014, 'value': 5700000, 'land': 1336968, 'improvements': 4363032}, '2016': {'year': 2016, 'value': 6270000, 'land': 1336968, 'improvements': 4933032}, '2017': {'year': 2017, 'value': 7000000, 'land': 2673936, 'improvements': 4326064}, '2018': {'year': 2018, 'value': 7123452, 'land': 2673936, 'improvements': 4449516}, '2019': {'year': 2019, 'value': 7480000, 'land': 2673936, 'improvements': 4806064}, '2020': {'year': 2020, 'value': 7854716, 'land': 2673936, 'improvements': 5180780}, '2021': {'year': 2021, 'value': 8981812, 'land': 4278298, 'improvements': 4703514}, '2022': {'year': 2022, 'value': 10915100, 'land': 4278298, 'improvements': 6636802}, '2023': {'year': 2023, 'value': 11926140, 'land': 4278298, 'improvements': 7647842}, '2025': {'year': 2025, 'value': 22141456, 'land': 8021808, 'improvements': 14119648}}","{'2013': {'year': 2013, 'total': 266325}, '2014': {'year': 2014, 'total': 152232}, '2016': {'year': 2016, 'total': 301891}, '2017': {'year': 2017, 'total': 266783}, '2018': {'year': 2018, 'total': 278928}, '2019': {'year': 2019, 'total': 291529}, '2020': {'year': 2020, 'total': 324680}, '2021': {'year': 2021, 'total': 400511}, '2022': {'year': 2022, 'total': 403499}, '2023': {'year': 2023, 'total': 345303}, '2025': {'year': 2025, 'total': 761218}}",,,,,,
"12430-Metric-Blvd,-Austin,-TX-78758","12430 Metric Blvd, Austin, TX 78758",12430 Metric Blvd,,Austin,TX,48,78758,Travis,453,30.41274,-97.692939,Apartment,1.0,1.0,664.0,2006.0,,,,,,,,,
"6500-Champion-Grandview-Way,-Austin,-TX-78750","6500 Champion Grandview Way, Austin, TX 78750",6500 Champion Grandview Way,,Austin,TX,48,78750,Travis,453,30.36684,-97.792458,Apartment,1.0,1.0,708.0,2004.0,,,,,,,,,
"2402-San-Gabriel-St,-Austin,-TX-78705","2402 San Gabriel St, Austin, TX 78705",2402 San Gabriel St,,Austin,TX,48,78705,Travis,453,30.288448,-97.747951,Apartment,,,,,,,,,,,,,
"1621-E-6th-St,-Austin,-TX-78702","1621 E 6th St, Austin, TX 78702",1621 E 6th St,,Austin,TX,48,78702,Travis,453,30.262248,-97.726008,Apartment,0.0,1.0,393.0,2016.0,,,,43560.0,,,,,
"1911-Willow-Creek-Dr,-Austin,-TX-78741","1911 Willow Creek Dr, Austin, TX 78741",1911 Willow Creek Dr,,Austin,TX,48,78741,Travis,453,30.233175,-97.727414,Apartment,1.0,1.0,660.0,1969.0,,,,,,,,,
"1611-W-5th-St,-Austin,-TX-78703","1611 W 5th St, Austin, TX 78703",1611 W 5th St,,Austin,TX,48,78703,Travis,453,30.273858,-97.764246,Apartment,0.0,1.0,588.0,2009.0,,,,,,,,,
"1720-W-Wells-Branch-Pkwy,-Austin,-TX-78728","1720 W Wells Branch Pkwy, Austin, TX 78728",1720 W Wells Branch Pkwy,,Austin,TX,48,78728,Travis,453,30.440369,-97.672445,Apartment,,,,1996.0,,,,,,,,,
"13145-N-Hwy,-183,-Austin,-TX-78750","13145 N Hwy, 183, Austin, TX 78750",13145 N Hwy,183,Austin,TX,48,78750,Williamson,491,30.442044,-97.778631,Apartment,1.0,1.0,709.0,2007.0,,,,,,,,,
"6607-Brodie-Ln,-Austin,-TX-78745","6607 Brodie Ln, Austin, TX 78745",6607 Brodie Ln,,Austin,TX,48,78745,Travis,453,30.215883,-97.825396,Apartment,1.0,1.0,655.0,1997.0,,,,,,,,,
"3816-S-Lamar-Blvd,-Austin,-TX-78704","3816 S Lamar Blvd, Austin, TX 78704",3816 S Lamar Blvd,,Austin,TX,48,78704,Travis,453,30.239108,-97.79131,Apartment,0.0,1.0,505.0,1984.0,,,,,,,,,
"1507-Kinney-Ave,-Austin,-TX-78704","1507 Kinney Ave, Austin, TX 78704",1507 Kinney Ave,,Austin,TX,48,78704,Travis,453,30.253431,-97.766611,Apartment,,1.0,,1982.0,,,,,,,,,
"1034-Clayton-Ln,-Austin,-TX-78723","1034 Clayton Ln, Austin, TX 78723",1034 Clayton Ln,,Austin,TX,48,78723,Travis,453,30.31971,-97.7031,Single Family,,2.0,,1998.0,,,,,,,,,
"1403-Norwalk-Ln,-Austin,-TX-78703","1403 Norwalk Ln, Austin, TX 78703",1403 Norwalk Ln,,Austin,TX,48,78703,Travis,453,30.28921,-97.7714,Apartment,1.0,1.0,682.0,1963.0,,,,,,,,,
"811-E-11th-St,-Austin,-TX-78702","811 E 11th St, Austin, TX 78702",811 E 11th St,,Austin,TX,48,78702,Travis,453,30.26942,-97.732051,Apartment,0.0,1.0,416.0,2013.0,,,,,,,,,
"2819-Foster-Ln,-Austin,-TX-78757","2819 Foster Ln, Austin, TX 78757",2819 Foster Ln,,Austin,TX,48,78757,Travis,453,30.356331,-97.73818,Apartment,,,,1979.0,,,,,,,,,
"1908-W-Loop,-Apt-A,-Austin,-TX-78758","1908 W Loop, Apt A, Austin, TX 78758",1908 W Loop,Apt A,Austin,TX,48,78758,Travis,453,30.372162,-97.718242,Multi-Family,2.0,1.0,977.0,,,,,,,,,,
"6263-Mcneil-Dr,-Austin,-TX-78729","6263 Mcneil Dr, Austin, TX 78729",6263 Mcneil Dr,,Austin,TX,48,78729,Travis,453,30.440315,-97.747084,Apartment,1.0,1.0,619.0,1996.0,,,,,,,,,
"8000-Decker-Ln,-Austin,-TX-78724","8000 Decker Ln, Austin, TX 78724",8000 Decker Ln,,Austin,TX,48,78724,Travis,453,30.308724,-97.624002,Apartment,,,,2004.0,,,,,,,,,
"1810-Adina-St,-Unit-B,-Austin,-TX-78721","1810 Adina St, Unit B, Austin, TX 78721",1810 Adina St,Unit B,Austin,TX,48,78721,Travis,453,30.283132,-97.679825,Multi-Family,3.0,2.5,1495.0,,,,,,,,,,
"8312-Fathom-Cir,-Austin,-TX-78750","8312 Fathom Cir, Austin, TX 78750",8312 Fathom Cir,,Austin,TX,48,78750,Williamson,491,30.436356,-97.7768,Apartment,,,,1984.0,,,,,,,,,
"7224-Northeast-Dr,-Austin,-TX-78723","7224 Northeast Dr, Austin, TX 78723",7224 Northeast Dr,,Austin,TX,48,78723,Travis,453,30.321055,-97.680679,Apartment,,,,1972.0,,,,,,,,,
"8001-S-Ih,---35,-Austin,-TX-78744","8001 S Ih, # 35, Austin, TX 78744",8001 S Ih,# 35,Austin,TX,48,78744,Travis,453,30.174784,-97.775327,Apartment,,,,2014.0,,,,,,,,,
"9501-N-Fm-620-Rd,-Austin,-TX-78726","9501 N Fm 620 Rd, Austin, TX 78726",9501 N Fm 620 Rd,,Austin,TX,48,78726,Travis,453,30.434316,-97.837241,Apartment,1.0,1.0,680.0,2006.0,{'unitCount': 336},"{'2014': {'year': 2014, 'value': 32487340, 'land': 3250000, 'improvements': 29237340}, '2016': {'year': 2016, 'value': 34262000, 'land': 4407161, 'improvements': 29854839}, '2017': {'year': 2017, 'value': 38436700, 'land': 5036756, 'improvements': 33399944}, '2018': {'year': 2018, 'value': 42064200, 'land': 5036756, 'improvements': 37027444}, '2019': {'year': 2019, 'value': 43150000, 'land': 5036756, 'improvements': 38113244}, '2020': {'year': 2020, 'value': 47660000, 'land': 5036756, 'improvements': 42623244}, '2021': {'year': 2021, 'value': 48920000, 'land': 5036756, 'improvements': 43883244}, '2022': {'year': 2022, 'value': 49800000, 'land': 5036756, 'improvements': 44763244}, '2023': {'year': 2023, 'value': 70900000, 'land': 5036756, 'improvements': 65863244}, '2025': {'year': 2025, 'value': 65440000, 'land': 5036756, 'improvements': 60403244}}","{'2014': {'year': 2014, 'total': 867304}, '2016': {'year': 2016, 'total': 1088528}, '2017': {'year': 2017, 'total': 1123094}, '2018': {'year': 2018, 'total': 1128961}, '2019': {'year': 2019, 'total': 1251233}, '2020': {'year': 2020, 'total': 1231044}, '2021': {'year': 2021, 'total': 1304311}, '2022': {'year': 2022, 'total': 1650666}, '2023': {'year': 2023, 'total': 1459438}, '2025': {'year': 2025, 'total': 1386159}}",,,,,,
"500-E-Anderson-Ln,-Austin,-TX-78752","500 E Anderson Ln, Austin, TX 78752",500 E Anderson Ln,,Austin,TX,48,78752,Travis,453,30.34206,-97.70144,Apartment,1.0,1.0,702.0,1967.0,,,,,,,,,
"9617-Great-Hills-Trl,-Austin,-TX-78759","9617 Great Hills Trl, Austin, TX 78759",9617 Great Hills Trl,,Austin,TX,48,78759,Travis,453,30.393533,-97.753775,Apartment,1.0,1.0,600.0,1984.0,,,,,,,,,
"625-E-Stassney-Ln,-Austin,-TX-78745","625 E Stassney Ln, Austin, TX 78745",625 E Stassney Ln,,Austin,TX,48,78745,Travis,453,30.200133,-97.769697,Apartment,1.0,1.0,700.0,2009.0,,,,,,,,,
"3621-W-Slaughter-Ln,-Austin,-TX-78749","3621 W Slaughter Ln, Austin, TX 78749",3621 W Slaughter Ln,,Austin,TX,48,78749,Travis,453,30.183309,-97.853186,Apartment,1.0,1.0,698.0,2012.0,,,,,,,,,
"8805-N-Plaza-Dr,-Austin,-TX-78753","8805 N Plaza Dr, Austin, TX 78753",8805 N Plaza Dr,,Austin,TX,48,78753,Travis,453,30.34965,-97.68629,Apartment,0.0,1.0,423.0,1978.0,{'unitCount': 352},,,,,,,,
"111-Sandra-Muraida-Way,-Austin,-TX-78703","111 Sandra Muraida Way, Austin, TX 78703",111 Sandra Muraida Way,,Austin,TX,48,78703,Travis,453,30.267449,-97.754759,Apartment,1.0,1.0,706.0,2013.0,,,,,,,,,
"1300-Pleasant-Valley-Rd-S,-Austin,-TX-78741","1300 Pleasant Valley Rd S, Austin, TX 78741",1300 Pleasant Valley Rd S,,Austin,TX,48,78741,Travis,453,30.24047,-97.719682,Apartment,,,,1972.0,,,,,,,,,
"10600-Jollyville-Rd,-Austin,-TX-78759","10600 Jollyville Rd, Austin, TX 78759",10600 Jollyville Rd,,Austin,TX,48,78759,Travis,453,30.399719,-97.749875,Apartment,2.0,2.0,1174.0,2017.0,,,,,,,,,
"460-Bastrop-Hwy-S,-Austin,-TX-78741","460 Bastrop Hwy S, Austin, TX 78741",460 Bastrop Hwy S,,Austin,TX,48,78741,Travis,453,30.237778,-97.688568,Apartment,3.0,2.0,981.0,2019.0,,,,,,,,,
"7000-E-Ben-White-Blvd,-Austin,-TX-78741","7000 E Ben White Blvd, Austin, TX 78741",7000 E Ben White Blvd,,Austin,TX,48,78741,Travis,453,30.217479,-97.702228,Apartment,2.0,2.0,,2016.0,,,,,,,,,
"1003-Justin-Ln,-Austin,-TX-78757","1003 Justin Ln, Austin, TX 78757",1003 Justin Ln,,Austin,TX,48,78757,Travis,453,30.337039,-97.722252,Apartment,,,,1984.0,,,,,,,,,
"300-West-Ave,-Austin,-TX-78701","300 West Ave, Austin, TX 78701",300 West Ave,,Austin,TX,48,78701,Travis,453,30.2686,-97.75291,Apartment,1.0,1.0,695.0,2001.0,{'unitCount': 239},,,,,,,,
"2016-Park-Bend-Dr,-Austin,-TX-78758","2016 Park Bend Dr, Austin, TX 78758",2016 Park Bend Dr,,Austin,TX,48,78758,Travis,453,30.408332,-97.698735,Multi-Family,,,184900.0,1985.0,"{'architectureType': 'Multi-Unit Building', 'fireplace': True, 'floorCount': 3, 'foundationType': 'Slab / Mat / Raft', 'roofType': 'Composition Shingle', 'unitCount': 2}","{'2018': {'year': 2018, 'value': 33465000, 'land': 3801920, 'improvements': 29663080}}","{'2018': {'year': 2018, 'total': 735065}}",475240.0,262627,LOT 1 BLK A VILLAGE AT WALNUT CREEK PHS 2 SEC 12,VILLAGE AT WALNUT CREEK PH 2,"{'names': ['TWAREL LLC'], 'mailingAddress': {'id': '540-Madison-Ave,-FL-26,-New-York,-NY-10022', 'addressLine1': '540 Madison Ave', 'addressLine2': 'FL 26', 'city': 'New York', 'state': 'NY', 'stateFips': '36', 'zipCode': '10022'}}",False
"6600-Ed-Bluestein-Blvd,-Austin,-TX-78723","6600 Ed Bluestein Blvd, Austin, TX 78723",6600 Ed Bluestein Blvd,,Austin,TX,48,78723,Travis,453,30.305748,-97.66245,Apartment,0.0,1.0,500.0,1985.0,,,,,,,,,
"1200-E-Parmer-Ln,-Austin,-TX-78753","1200 E Parmer Ln, Austin, TX 78753",1200 E Parmer Ln,,Austin,TX,48,78753,Travis,453,30.396078,-97.652516,Apartment,0.0,1.0,629.0,2013.0,,,,,,,,,
"700-Hearn-St,-Austin,-TX-78703","700 Hearn St, Austin, TX 78703",700 Hearn St,,Austin,TX,48,78703,Travis,453,30.280987,-97.771896,Apartment,1.0,1.0,,1974.0,,,,,,,,,
"7601-Rialto-Blvd,-Austin,-TX-78735","7601 Rialto Blvd, Austin, TX 78735",7601 Rialto Blvd,,Austin,TX,48,78735,Travis,453,30.251558,-97.871263,Apartment,1.0,1.0,754.0,2002.0,,,,,,,,,
"15510-Ranch-Road-620-Rd,-Austin,-TX-78717","15510 Ranch Road 620 Rd, Austin, TX 78717",15510 Ranch Road 620 Rd,,Austin,TX,48,78717,Williamson,491,30.485601,-97.736289,Apartment,,,,2008.0,,,,,,,,,
"8701-Bluffstone-Cv,-Austin,-TX-78759","8701 Bluffstone Cv, Austin, TX 78759",8701 Bluffstone Cv,,Austin,TX,48,78759,Travis,453,30.390953,-97.763931,Apartment,1.0,1.0,737.0,1998.0,,,,,,,,,
"2900-Sunridge-Dr,-Austin,-TX-78741","2900 Sunridge Dr, Austin, TX 78741",2900 Sunridge Dr,,Austin,TX,48,78741,Travis,453,30.22146,-97.72628,Apartment,,,,2001.0,,,,,,,,,
"8617-Spicewood-Springs-Rd,-Austin,-TX-78759","8617 Spicewood Springs Rd, Austin, TX 78759",8617 Spicewood Springs Rd,,Austin,TX,48,78759,Williamson,491,30.433632,-97.77492,Apartment,,,,1987.0,,,,,,,,,
"8519-Cahill-Dr,-Austin,-TX-78729","8519 Cahill Dr, Austin, TX 78729",8519 Cahill Dr,,Austin,TX,48,78729,Williamson,491,30.444022,-97.773271,Apartment,1.0,1.0,411.0,1986.0,,,,,,,,,
"8715-W-Hwy,-71,-Austin,-TX-78735","8715 W Hwy, 71, Austin, TX 78735",8715 W Hwy,71,Austin,TX,48,78735,Travis,453,30.250246,-97.895958,Apartment,1.0,1.0,795.0,2015.0,,,,,,,,,
"4100-W-Slaughter-Ln,-Austin,-TX-78749","4100 W Slaughter Ln, Austin, TX 78749",4100 W Slaughter Ln,,Austin,TX,48,78749,Travis,453,30.189952,-97.85551,Apartment,1.0,1.0,661.0,2007.0,,,,,,,,,
"7201-S-Congress-Ave,-Austin,-TX-78745","7201 S Congress Ave, Austin, TX 78745",7201 S Congress Ave,,Austin,TX,48,78745,Travis,453,30.186695,-97.780556,Apartment,2.0,2.0,880.0,2003.0,,,,,,,,,
"11011-Domain-Dr,-Austin,-TX-78758","11011 Domain Dr, Austin, TX 78758",11011 Domain Dr,,Austin,TX,48,78758,Travis,453,30.39654,-97.72534,Apartment,0.0,1.0,602.0,2009.0,,,,,,,,,
"815-W-Slaughter-Ln,-Austin,-TX-78748","815 W Slaughter Ln, Austin, TX 78748",815 W Slaughter Ln,,Austin,TX,48,78748,Travis,453,30.172233,-97.806842,Apartment,,,,1999.0,,,,,,,,,
"8001-Highway,-71-W,-Austin,-TX-78736","8001 Highway, 71 W, Austin, TX 78736",8001 Highway,71 W,Austin,TX,48,78736,Travis,453,30.244458,-97.885005,Apartment,2.0,,,1985.0,,,,,,,,,
"1845-River-Crossing-Cir,-Austin,-TX-78741","1845 River Crossing Cir, Austin, TX 78741",1845 River Crossing Cir,,Austin,TX,48,78741,Travis,453,30.230324,-97.712433,Apartment,2.0,1.0,1076.0,,,,,,,,,,
"201-Lavaca-St,-Austin,-TX-78701","201 Lavaca St, Austin, TX 78701",201 Lavaca St,,Austin,TX,48,78701,Travis,453,30.265257,-97.746251,Apartment,1.0,1.0,856.0,2004.0,,,,,,,,,
"8405-Old-Bee-Caves-Rd,-Austin,-TX-78735","8405 Old Bee Caves Rd, Austin, TX 78735",8405 Old Bee Caves Rd,,Austin,TX,48,78735,Travis,453,30.250862,-97.88784,Apartment,2.0,2.0,1083.0,2001.0,,,,,,,,,
"1127-Pearl-Retreat-Ln,-Austin,-TX-78753","1127 Pearl Retreat Ln, Austin, TX 78753",1127 Pearl Retreat Ln,,Austin,TX,48,78753,Travis,453,30.39348,-97.651714,Apartment,1.0,1.0,629.0,2019.0,,,,,,,,,
"12101-N-Lamar-Blvd,-Austin,-TX-78753","12101 N Lamar Blvd, Austin, TX 78753",12101 N Lamar Blvd,,Austin,TX,48,78753,Travis,453,30.395239,-97.678959,Apartment,1.0,1.0,664.0,2018.0,,,,,,,,,
"2310-Wickersham-Ln,-Austin,-TX-78741","2310 Wickersham Ln, Austin, TX 78741",2310 Wickersham Ln,,Austin,TX,48,78741,Travis,453,30.228539,-97.72229,Apartment,1.0,1.0,644.0,1974.0,,,,,,,,,
"1717-Toomey-Rd,-Austin,-TX-78704","1717 Toomey Rd, Austin, TX 78704",1717 Toomey Rd,,Austin,TX,48,78704,Travis,453,30.26444,-97.762161,Apartment,1.0,1.0,646.0,2014.0,,,,,,,,,
"3501-Shoreline-Dr,-Austin,-TX-78728","3501 Shoreline Dr, Austin, TX 78728",3501 Shoreline Dr,,Austin,TX,48,78728,Travis,453,30.455183,-97.68666,Apartment,1.0,1.0,782.0,2001.0,,,,,,,,,
"1143-Shady-Ln,-Austin,-TX-78721","1143 Shady Ln, Austin, TX 78721",1143 Shady Ln,,Austin,TX,48,78721,Travis,453,30.26251,-97.689888,Apartment,2.0,2.0,1167.0,2018.0,,,,,,,,,
"11301-Farrah-Ln,-Austin,-TX-78748","11301 Farrah Ln, Austin, TX 78748",11301 Farrah Ln,,Austin,TX,48,78748,Travis,453,30.140304,-97.799771,Apartment,1.0,1.0,582.0,2013.0,,,,,,,,,
"13201-Legendary-Dr,-Austin,-TX-78727","13201 Legendary Dr, Austin, TX 78727",13201 Legendary Dr,,Austin,TX,48,78727,Travis,453,30.43803,-97.73192,Apartment,1.0,1.0,668.0,2016.0,,,,,,,,,
"2126-Goodrich-Ave,-Austin,-TX-78704","2126 Goodrich Ave, Austin, TX 78704",2126 Goodrich Ave,,Austin,TX,48,78704,Travis,453,30.248253,-97.773939,Apartment,,,,2019.0,,,,,,,,,
"5705-Diehl-Trl,-Austin,-TX-78727","5705 Diehl Trl, Austin, TX 78727",5705 Diehl Trl,,Austin,TX,48,78727,Travis,453,30.434874,-97.74155,Apartment,1.0,1.0,713.0,2017.0,,,,,,,,,
"507-Pressler-St,-Austin,-TX-78703","507 Pressler St, Austin, TX 78703",507 Pressler St,,Austin,TX,48,78703,Travis,453,30.27282,-97.76,Apartment,0.0,1.0,612.0,2009.0,,,,,,,,,
"5020-Manor-Rd,-Austin,-TX-78723","5020 Manor Rd, Austin, TX 78723",5020 Manor Rd,,Austin,TX,48,78723,Travis,453,30.29792,-97.68753,Apartment,2.0,1.5,990.0,,{'unitCount': 62},,,,,,,,
"9009-N-Fm-620-Rd,-Austin,-TX-78726","9009 N Fm 620 Rd, Austin, TX 78726",9009 N Fm 620 Rd,,Austin,TX,48,78726,Travis,453,30.432086,-97.840106,Apartment,1.0,1.0,711.0,2001.0,,,,,,,,,
"3101-Wells-Branch-Pkwy,-Austin,-TX-78728","3101 Wells Branch Pkwy, Austin, TX 78728",3101 Wells Branch Pkwy,,Austin,TX,48,78728,Travis,453,30.439961,-97.694018,Apartment,1.0,1.0,707.0,1995.0,,,,,,,,,
"3101-Shoreline-Dr,-Austin,-TX-78728","3101 Shoreline Dr, Austin, TX 78728",3101 Shoreline Dr,,Austin,TX,48,78728,Travis,453,30.45401,-97.68389,Townhouse,,,,1986.0,,,,,,,,,
"1909-Rio-Grande-St,-Austin,-TX-78705","1909 Rio Grande St, Austin, TX 78705",1909 Rio Grande St,,Austin,TX,48,78705,Travis,453,30.283703,-97.744799,Apartment,,,,2018.0,,,,,,,,,
"1630-E-6th-St,-Austin,-TX-78702","1630 E 6th St, Austin, TX 78702",1630 E 6th St,,Austin,TX,48,78702,Travis,453,30.26265,-97.724549,Apartment,0.0,1.0,355.0,2017.0,,,,,,,,,
"2810-Hemphill-Park,-Austin,-TX-78705","2810 Hemphill Park, Austin, TX 78705",2810 Hemphill Park,,Austin,TX,48,78705,Travis,453,30.29348,-97.74126,Apartment,3.0,2.0,1065.0,2003.0,,,,,,,,,
"5400-N-Lamar-Blvd,-Austin,-TX-78751","5400 N Lamar Blvd, Austin, TX 78751",5400 N Lamar Blvd,,Austin,TX,48,78751,Travis,453,30.322148,-97.729454,Apartment,1.0,1.0,690.0,2014.0,,,,,,,,,
"2430-Cromwell-Cir,-Austin,-TX-78741","2430 Cromwell Cir, Austin, TX 78741",2430 Cromwell Cir,,Austin,TX,48,78741,Travis,453,30.22721,-97.72042,Apartment,1.0,1.0,603.0,1979.0,,,,,,,,,
"1901-Onion-Creek-Pkwy,-Austin,-TX-78748","1901 Onion Creek Pkwy, Austin, TX 78748",1901 Onion Creek Pkwy,,Austin,TX,48,78748,Travis,453,30.136809,-97.803248,Apartment,1.0,1.0,680.0,2008.0,,,,,,,,,
"1915-Wells-Branch-Pkwy,-Austin,-TX-78728","1915 Wells Branch Pkwy, Austin, TX 78728",1915 Wells Branch Pkwy,,Austin,TX,48,78728,Travis,453,30.433986,-97.68079,Apartment,1.0,1.0,502.0,1984.0,,,,,,,,,
"12638-Ridgeline-Blvd,-Austin,-TX-78613","12638 Ridgeline Blvd, Austin, TX 78613",12638 Ridgeline Blvd,,Austin,TX,48,78613,Williamson,491,30.46502,-97.80981,Apartment,,,,2019.0,,,,,,,,,
"5708-W-Parmer-Ln,-Austin,-TX-78727","5708 W Parmer Ln, Austin, TX 78727",5708 W Parmer Ln,,Austin,TX,48,78727,Travis,453,30.438951,-97.736188,Apartment,1.0,1.0,785.0,2016.0,,,,,,,,,
"10727-Domain-Dr,-Austin,-TX-78758","10727 Domain Dr, Austin, TX 78758",10727 Domain Dr,,Austin,TX,48,78758,Travis,453,30.393939,-97.725653,Apartment,0.0,1.0,504.0,2019.0,,,,,,,,,
"10505-S-Interstate-Hwy,-35,-Austin,-TX-78747","10505 S Interstate Hwy, 35, Austin, TX 78747",10505 S Interstate Hwy,35,Austin,TX,48,78747,Travis,453,30.149099,-97.790555,Apartment,1.0,1.0,,,,,,,,,,,
"833-Fairfield-Dr,-Austin,-TX-78758","833 Fairfield Dr, Austin, TX 78758",833 Fairfield Dr,,Austin,TX,48,78758,Travis,453,30.3558,-97.705123,Apartment,2.0,1.0,793.0,1983.0,,,,,,,,,
"11210-FM-2222,-Austin,-TX-78730","11210 FM 2222, Austin, TX 78730",11210 FM 2222,,Austin,TX,48,78730,Travis,453,30.400012,-97.850565,Apartment,,,,2014.0,,,,,,,,,
"1801-Fortview-Rd,-Austin,-TX-78704","1801 Fortview Rd, Austin, TX 78704",1801 Fortview Rd,,Austin,TX,48,78704,Travis,453,30.229807,-97.785706,Apartment,1.0,1.0,525.0,1970.0,{'unitCount': 3},,,,,,,,
"1900-Onion-Creek-Pkwy,-Austin,-TX-78748","1900 Onion Creek Pkwy, Austin, TX 78748",1900 Onion Creek Pkwy,,Austin,TX,48,78748,Travis,453,30.139759,-97.801548,Apartment,1.0,1.0,582.0,2015.0,,,,,,,,,
"6280-Mcneil-Ranch-Dr,-Austin,-TX-78729","6280 Mcneil Ranch Dr, Austin, TX 78729",6280 Mcneil Ranch Dr,,Austin,TX,48,78729,Travis,453,30.442788,-97.749397,Apartment,,,,1998.0,,,,,,,,,
"2900-Century-Park-Blvd,-Austin,-TX-78727","2900 Century Park Blvd, Austin, TX 78727",2900 Century Park Blvd,,Austin,TX,48,78727,Travis,453,30.435048,-97.694611,Apartment,2.0,2.0,1026.0,2005.0,,,,,,,,,
"4800-Steiner-Ranch-Blvd,-Austin,-TX-78732","4800 Steiner Ranch Blvd, Austin, TX 78732",4800 Steiner Ranch Blvd,,Austin,TX,48,78732,Travis,453,30.383761,-97.873607,Apartment,1.0,1.0,670.0,2010.0,,,,,,,,,
"1620-E-Riverside-Dr,-Austin,-TX-78741","1620 E Riverside Dr, Austin, TX 78741",1620 E Riverside Dr,,Austin,TX,48,78741,Travis,453,30.24538,-97.73035,Apartment,0.0,1.0,631.0,2010.0,,,,,,,,,
"15433-FM-1325,-Austin,-TX-78728","15433 FM 1325, Austin, TX 78728",15433 FM 1325,,Austin,TX,48,78728,Williamson,491,30.463543,-97.693504,Apartment,1.0,1.0,700.0,2016.0,,,,,,,,,
"14745-Merriltown-Rd,-Austin,-TX-78728","14745 Merriltown Rd, Austin, TX 78728",14745 Merriltown Rd,,Austin,TX,48,78728,Travis,453,30.45054,-97.69152,Single Family,2.0,,,1999.0,,,,,,,,,
"9520-9521-Spectrum-Dr,-Austin,-TX-78717","9520-9521 Spectrum Dr, Austin, TX 78717",9520-9521 Spectrum Dr,,Austin,TX,48,78717,Williamson,491,30.48162,-97.76875,Apartment,,,,2013.0,,,,,,,,,
"8800-Highway,-290-W,-Austin,-TX-78736","8800 Highway, 290 W, Austin, TX 78736",8800 Highway,290 W,Austin,TX,48,78736,Travis,453,30.23515,-97.91839,Apartment,1.0,1.0,,2010.0,,,,,,,,,
"4821-Riverside-Dr-E,-Austin,-TX-78741","4821 Riverside Dr E, Austin, TX 78741",4821 Riverside Dr E,,Austin,TX,48,78741,Travis,453,30.230565,-97.718314,Apartment,,,,1973.0,,,,,,,,,
"10127-Middle-Fiskville-Rd,-Austin,-TX-78753","10127 Middle Fiskville Rd, Austin, TX 78753",10127 Middle Fiskville Rd,,Austin,TX,48,78753,Travis,453,30.36427,-97.68169,Apartment,1.0,1.0,728.0,2018.0,,,,,,,,,
"3503-Speedway,-Austin,-TX-78705","3503 Speedway, Austin, TX 78705",3503 Speedway,,Austin,TX,48,78705,Travis,453,30.29961,-97.73393,Apartment,1.0,1.0,,1961.0,,,,,,,,,
"1701-Oak-Hill-Ln,-Austin,-TX-78744","1701 Oak Hill Ln, Austin, TX 78744",1701 Oak Hill Ln,,Austin,TX,48,78744,Travis,453,30.163971,-97.784483,Apartment,1.0,1.0,625.0,2016.0,,,,,,,,,
"1300-E-Riverside-Dr,-Austin,-TX-78741","1300 E Riverside Dr, Austin, TX 78741",1300 E Riverside Dr,,Austin,TX,48,78741,Travis,453,30.24846,-97.734131,Apartment,0.0,1.0,436.0,2013.0,,,,,,,,,
"1200-1201-Broadmoor-Dr,-Austin,-TX-78723","1200-1201 Broadmoor Dr, Austin, TX 78723",1200-1201 Broadmoor Dr,,Austin,TX,48,78723,Travis,453,30.31071,-97.70569,Apartment,,,,1969.0,,,,,,,,,
"11600-11634-Argonne-Forest-Trl,-Austin,-TX-78759","11600-11634 Argonne Forest Trl, Austin, TX 78759",11600-11634 Argonne Forest Trl,,Austin,TX,48,78759,Travis,453,30.42999,-97.76466,Apartment,3.0,2.0,,1984.0,,,,,,,,,
"3100-Kramer-Ln,-Austin,-TX-78758","3100 Kramer Ln, Austin, TX 78758",3100 Kramer Ln,,Austin,TX,48,78758,Travis,453,30.397036,-97.724227,Apartment,0.0,1.0,684.0,2016.0,,,,,,,,,
"801-Sugaree-Ave,-Austin,-TX-78757","801 Sugaree Ave, Austin, TX 78757",801 Sugaree Ave,,Austin,TX,48,78757,Travis,453,30.341027,-97.717824,Apartment,1.0,1.0,697.0,2018.0,,,,,,,,,
"1901-E-Anderson-Ln,-Austin,-TX-78752","1901 E Anderson Ln, Austin, TX 78752",1901 E Anderson Ln,,Austin,TX,48,78752,Travis,453,30.327361,-97.67934,Apartment,1.0,1.0,703.0,1975.0,,,,,,,,,
"739-William-Cannon-Dr-W,-Austin,-TX-78745","739 William Cannon Dr W, Austin, TX 78745",739 William Cannon Dr W,,Austin,TX,48,78745,Travis,453,30.197265,-97.790089,Apartment,2.0,,,1984.0,,,,,,,,,
"4320-Congress-Ave-S,-Austin,-TX-78745","4320 Congress Ave S, Austin, TX 78745",4320 Congress Ave S,,Austin,TX,48,78745,Travis,453,30.219536,-97.768316,Apartment,,,,1983.0,,,,,,,,,
"10101-W-Parmer-Ln,-Austin,-TX-78717","10101 W Parmer Ln, Austin, TX 78717",10101 W Parmer Ln,,Austin,TX,48,78717,Williamson,491,30.488693,-97.77386,Apartment,1.0,1.0,610.0,2000.0,,,,,,,,,
"3801-S-Congress-Ave,-Austin,-TX-78704","3801 S Congress Ave, Austin, TX 78704",3801 S Congress Ave,,Austin,TX,48,78704,Travis,453,30.225706,-97.761423,Single Family,2.0,2.0,1221.0,,,,,,,,,,
"8505-8525-Shoal-Creek-Blvd,-Austin,-TX-78757","8505-8525 Shoal Creek Blvd, Austin, TX 78757",8505-8525 Shoal Creek Blvd,,Austin,TX,48,78757,Travis,453,30.37074,-97.73715,Apartment,,,,,,,,,,,,,
"10001-S-1st-St,-Austin,-TX-78748","10001 S 1st St, Austin, TX 78748",10001 S 1st St,,Austin,TX,48,78748,Travis,453,30.160349,-97.797489,Apartment,1.0,1.0,556.0,2008.0,,,,,,,,,
"609-Clayton-Ln,-Austin,-TX-78752","609 Clayton Ln, Austin, TX 78752",609 Clayton Ln,,Austin,TX,48,78752,Travis,453,30.32363,-97.71372,Apartment,0.0,1.0,529.0,2017.0,,,,,,,,,
"13635-Rutledge-Spur,-Austin,-TX-78717","13635 Rutledge Spur, Austin, TX 78717",13635 Rutledge Spur,,Austin,TX,48,78717,Williamson,491,30.476221,-97.780429,Apartment,1.0,2.0,,2016.0,,,,,,,,,
"8200-8220-Research-Blvd,-Austin,-TX-78758","8200-8220 Research Blvd, Austin, TX 78758",8200-8220 Research Blvd,,Austin,TX,48,78758,Travis,453,30.35553,-97.71593,Apartment,,,,1970.0,,,,,,,,,
"4306-N-Quinlan-Park-Rd,-Austin,-TX-78732","4306 N Quinlan Park Rd, Austin, TX 78732",4306 N Quinlan Park Rd,,Austin,TX,48,78732,Travis,453,30.385784,-97.889298,Apartment,1.0,1.0,624.0,2017.0,,,,,,,,,
"9500-Alice-Mae-Ln,-Austin,-TX-78748","9500 Alice Mae Ln, Austin, TX 78748",9500 Alice Mae Ln,,Austin,TX,48,78748,Travis,453,30.164555,-97.795486,Apartment,0.0,1.0,,2018.0,,,,,,,,,
"10011-Stonelake-Blvd,-Austin,-TX-78759","10011 Stonelake Blvd, Austin, TX 78759",10011 Stonelake Blvd,,Austin,TX,48,78759,Travis,453,30.392452,-97.738301,Apartment,1.0,1.0,608.0,2014.0,,,,,,,,,
"8300-Bluff-Springs-Rd,-Austin,-TX-78744","8300 Bluff Springs Rd, Austin, TX 78744",8300 Bluff Springs Rd,,Austin,TX,48,78744,Travis,453,30.169866,-97.770348,Apartment,1.0,1.0,586.0,2018.0,,,,,,,,,
"715-W-Slaughter-Ln,-Austin,-TX-78748","715 W Slaughter Ln, Austin, TX 78748",715 W Slaughter Ln,,Austin,TX,48,78748,Travis,453,30.17353,-97.80296,Apartment,1.0,1.0,648.0,2015.0,,,,,,,,,
"6107-E-Riverside-Dr,-Austin,-TX-78741","6107 E Riverside Dr, Austin, TX 78741",6107 E Riverside Dr,,Austin,TX,48,78741,Travis,453,30.224781,-97.704833,Apartment,1.0,1.0,591.0,2019.0,,,,,,,,,
"7227-Highway,-290-E,-Austin,-TX-78723","7227 Highway, 290 E, Austin, TX 78723",7227 Highway,290 E,Austin,TX,48,78723,Travis,453,30.322109,-97.680861,Apartment,,1.0,,1984.0,,,,,,,,,
"1400-Rio-Grande-St,-Austin,-TX-78701","1400 Rio Grande St, Austin, TX 78701",1400 Rio Grande St,,Austin,TX,48,78701,Travis,453,30.278235,-97.746799,Apartment,0.0,1.0,,1970.0,,,,,,,,,
"10600-Brezza-Ln,-Austin,-TX-78748","10600 Brezza Ln, Austin, TX 78748",10600 Brezza Ln,,Austin,TX,48,78748,Travis,453,30.151338,-97.796066,Townhouse,1.0,1.0,768.0,2017.0,,,,,,,,,
"12433-Dessau-Rd,-Austin,-TX-78754","12433 Dessau Rd, Austin, TX 78754",12433 Dessau Rd,,Austin,TX,48,78754,Travis,453,30.38888,-97.64635,Apartment,,1.0,,2017.0,,,,,,,,,
"3400-Harmon-Ave,-Austin,-TX-78705","3400 Harmon Ave, Austin, TX 78705",3400 Harmon Ave,,Austin,TX,48,78705,Travis,453,30.292976,-97.722741,Apartment,2.0,2.0,1195.0,2014.0,,,,,,,,,
"9821-N-Lake-Creek-Pkwy,-Austin,-TX-78717","9821 N Lake Creek Pkwy, Austin, TX 78717",9821 N Lake Creek Pkwy,,Austin,TX,48,78717,Williamson,491,30.473833,-97.792648,Apartment,1.0,1.0,681.0,2019.0,,,,,,,,,
"7581-Chevy-Chase-Dr,-Austin,-TX-78752","7581 Chevy Chase Dr, Austin, TX 78752",7581 Chevy Chase Dr,,Austin,TX,48,78752,Travis,453,30.34007,-97.70462,Apartment,1.0,1.0,603.0,1974.0,,,,,,,,,
"7624-Tecoma-Cir,-Austin,-TX-78735","7624 Tecoma Cir, Austin, TX 78735",7624 Tecoma Cir,,Austin,TX,48,78735,Travis,453,30.25962,-97.858796,Apartment,1.0,1.0,806.0,2015.0,,,,,,,,,
"2600-Lake-Austin-Blvd,-Austin,-TX-78703","2600 Lake Austin Blvd, Austin, TX 78703",2600 Lake Austin Blvd,,Austin,TX,48,78703,Travis,453,30.280084,-97.773389,Apartment,1.0,1.0,828.0,1996.0,,,,,,,,,
"1301-W-Lynn-St,-Austin,-TX-78703","1301 W Lynn St, Austin, TX 78703",1301 W Lynn St,,Austin,TX,48,78703,Travis,453,30.28107,-97.75803,Apartment,1.0,1.0,,,,,,,,,,,
"10301-Farm-market-Rd-2222-Rd,-Austin,-TX-78730","10301 Farm-market Rd 2222 Rd, Austin, TX 78730",10301 Farm-market Rd 2222 Rd,,Austin,TX,48,78730,Travis,453,30.39128,-97.83947,Apartment,,,,1989.0,,,,,,,,,
"1730-1730-E-Oltorf-St,-Austin,-TX-78741","1730-1730 E Oltorf St, Austin, TX 78741",1730-1730 E Oltorf St,,Austin,TX,48,78741,Travis,453,30.23356,-97.73729,Apartment,,,,1981.0,,,,,,,,,
"2915-Aftonshire-Way,-Austin,-TX-78748","2915 Aftonshire Way, Austin, TX 78748",2915 Aftonshire Way,,Austin,TX,48,78748,Travis,453,30.181258,-97.837474,Apartment,1.0,1.0,508.0,1986.0,,,,,,,,,
"9801-W-Parmer-Ln,-Austin,-TX-78717","9801 W Parmer Ln, Austin, TX 78717",9801 W Parmer Ln,,Austin,TX,48,78717,Williamson,491,30.485704,-97.77235,Apartment,1.0,1.0,788.0,1997.0,,,,,,,,,
"3500-N-Capital-Of-Tx-Hwy,-Austin,-TX-78746","3500 N Capital Of Tx Hwy, Austin, TX 78746",3500 N Capital Of Tx Hwy,,Austin,TX,48,78746,Travis,453,30.332844,-97.809837,Apartment,,,,2008.0,,,,,,,,,
"8312-N-Interstate-35,-Austin,-TX-78753","8312 N Interstate 35, Austin, TX 78753",8312 N Interstate 35,,Austin,TX,48,78753,Travis,453,30.347002,-97.696998,Apartment,,,,1979.0,,,,,,,,,
"501-E-Oltorf-St,-Austin,-TX-78704","501 E Oltorf St, Austin, TX 78704",501 E Oltorf St,,Austin,TX,48,78704,Travis,453,30.2367,-97.75153,Apartment,1.0,1.0,559.0,2012.0,,,,,,,,,
"9219-Anderson-Mill-Rd,-Austin,-TX-78729","9219 Anderson Mill Rd, Austin, TX 78729",9219 Anderson Mill Rd,,Austin,TX,48,78729,Williamson,491,30.45046,-97.782615,Apartment,1.0,1.0,,1983.0,,,,,,,,,
"8801-La-Cresada-Dr,-Austin,-TX-78749","8801 La Cresada Dr, Austin, TX 78749",8801 La Cresada Dr,,Austin,TX,48,78749,Travis,453,30.2061,-97.86457,Apartment,1.0,1.0,844.0,2001.0,,,,,,,,,
"7631-Us-Hwy,-290-W,-Austin,-TX-78736","7631 Us Hwy, 290 W, Austin, TX 78736",7631 Us Hwy,290 W,Austin,TX,48,78736,Travis,453,30.22799,-97.88235,Apartment,2.0,2.0,1055.0,2000.0,,,,,,,,,
"5604-Southwest-Pkwy,-Austin,-TX-78735","5604 Southwest Pkwy, Austin, TX 78735",5604 Southwest Pkwy,,Austin,TX,48,78735,Travis,453,30.24699,-97.84618,Apartment,,,,1998.0,,,,,,,,,
"4411-Spicewood-Springs-Rd,-Austin,-TX-78759","4411 Spicewood Springs Rd, Austin, TX 78759",4411 Spicewood Springs Rd,,Austin,TX,48,78759,Travis,453,30.372927,-97.758873,Apartment,1.0,1.0,906.0,1994.0,,,,,,,,,
"7500-W-Slaughter-Ln,-Austin,-TX-78749","7500 W Slaughter Ln, Austin, TX 78749",7500 W Slaughter Ln,,Austin,TX,48,78749,Travis,453,30.217445,-97.892095,Apartment,1.0,1.0,903.0,2019.0,,,,,,,,,
"1119-Alterra-Pkwy,-Austin,-TX-78758","1119 Alterra Pkwy, Austin, TX 78758",1119 Alterra Pkwy,,Austin,TX,48,78758,Travis,453,30.39596,-97.72076,Apartment,1.0,1.0,,2015.0,,,,,,,,,
"3226-W-Slaughter-Ln,-Austin,-TX-78748","3226 W Slaughter Ln, Austin, TX 78748",3226 W Slaughter Ln,,Austin,TX,48,78748,Travis,453,30.183182,-97.843782,Apartment,,,,2016.0,,,,,,,,,
"1910-Willow-Creek-Dr,-Austin,-TX-78741","1910 Willow Creek Dr, Austin, TX 78741",1910 Willow Creek Dr,,Austin,TX,48,78741,Travis,453,30.23267,-97.72948,Single Family,,,,1971.0,,,,,,,,,
"8601-Anderson-Mill-Rd,-Austin,-TX-78729","8601 Anderson Mill Rd, Austin, TX 78729",8601 Anderson Mill Rd,,Austin,TX,48,78729,Williamson,491,30.453644,-97.768055,Apartment,1.0,1.0,630.0,2007.0,,,,,,,,,
"2223-Waterloo-City-Ln,-Austin,-TX-78741","2223 Waterloo City Ln, Austin, TX 78741",2223 Waterloo City Ln,,Austin,TX,48,78741,Travis,453,30.241561,-97.72377,Apartment,0.0,1.0,412.0,2013.0,,,,,,,,,
"2504-San-Gabriel-St,-Austin,-TX-78705","2504 San Gabriel St, Austin, TX 78705",2504 San Gabriel St,,Austin,TX,48,78705,Travis,453,30.29026,-97.7479,Apartment,0.0,1.0,,2016.0,,,,,,,,,
"3001-Esperanza-Xing,-Austin,-TX-78758","3001 Esperanza Xing, Austin, TX 78758",3001 Esperanza Xing,,Austin,TX,48,78758,Travis,453,30.398821,-97.722227,Apartment,0.0,1.0,497.0,2014.0,,,,,,,,,
"101-Colorado-St,-Austin,-TX-78701","101 Colorado St, Austin, TX 78701",101 Colorado St,,Austin,TX,48,78701,Travis,453,30.263888,-97.745378,Apartment,1.0,1.0,969.0,2009.0,,,,,,,,,
"3715-S-1st-St,-Austin,-TX-78704","3715 S 1st St, Austin, TX 78704",3715 S 1st St,,Austin,TX,48,78704,Travis,453,30.228895,-97.766679,Apartment,1.0,1.0,564.0,2013.0,,,,,,,,,
"6701-Burnet-Rd,-Austin,-TX-78757","6701 Burnet Rd, Austin, TX 78757",6701 Burnet Rd,,Austin,TX,48,78757,Travis,453,30.34242,-97.73803,Condo,1.0,1.0,555.0,2016.0,,,,,,,,,
"811-W-Slaughter-Ln,-Austin,-TX-78748","811 W Slaughter Ln, Austin, TX 78748",811 W Slaughter Ln,,Austin,TX,48,78748,Travis,453,30.172425,-97.804686,Apartment,1.0,1.0,640.0,,,,,,,,,,
"1911-1911-Willow-Creek-Dr,-Austin,-TX-78741","1911-1911 Willow Creek Dr, Austin, TX 78741",1911-1911 Willow Creek Dr,,Austin,TX,48,78741,Travis,453,30.23297,-97.72694,Apartment,,1.0,,,,,,,,,,,
"5406-Middle-Fiskville-Rd,-Austin,-TX-78751","5406 Middle Fiskville Rd, Austin, TX 78751",5406 Middle Fiskville Rd,,Austin,TX,48,78751,Travis,453,30.31684,-97.71481,Apartment,0.0,1.0,510.0,2019.0,,,,,,,,,
"13355-N-Us-Hwy,-183,-Austin,-TX-78750","13355 N Us Hwy, 183, Austin, TX 78750",13355 N Us Hwy,183,Austin,TX,48,78750,Williamson,491,30.44752,-97.7857,Apartment,,,,2001.0,,,,,,,,,
"8900-N-Interstate-35,-Austin,-TX-78753","8900 N Interstate 35, Austin, TX 78753",8900 N Interstate 35,,Austin,TX,48,78753,Travis,453,30.35383,-97.693237,Apartment,1.0,1.0,442.0,1982.0,,,,,,,,,
"6401-Rialto-Blvd,-Austin,-TX-78735","6401 Rialto Blvd, Austin, TX 78735",6401 Rialto Blvd,,Austin,TX,48,78735,Travis,453,30.248926,-97.856514,Apartment,1.0,1.0,660.0,2016.0,,,,,,,,,
"2910-Medical-Arts-St,-Austin,-TX-78705","2910 Medical Arts St, Austin, TX 78705",2910 Medical Arts St,,Austin,TX,48,78705,Travis,453,30.289555,-97.728818,Apartment,2.0,2.0,950.0,,,,,,,,,,
"2317-S-Pleasant-Valley-Rd,-Austin,-TX-78741","2317 S Pleasant Valley Rd, Austin, TX 78741",2317 S Pleasant Valley Rd,,Austin,TX,48,78741,Travis,453,30.227548,-97.728942,Apartment,1.0,1.0,577.0,1984.0,,,,,,,,,
"3215-Exposition-Blvd,-Austin,-TX-78703","3215 Exposition Blvd, Austin, TX 78703",3215 Exposition Blvd,,Austin,TX,48,78703,Travis,453,30.308315,-97.762657,Apartment,2.0,2.0,,2017.0,,,,,,,,,
"701-Woodward-St,-Austin,-TX-78704","701 Woodward St, Austin, TX 78704",701 Woodward St,,Austin,TX,48,78704,Travis,453,30.223606,-97.753395,Apartment,2.0,1.5,771.0,1989.0,,,,,,,,,
"8712-Old-Manor-Rd,-Austin,-TX-78724","8712 Old Manor Rd, Austin, TX 78724",8712 Old Manor Rd,,Austin,TX,48,78724,Travis,453,30.327316,-97.641271,Apartment,1.0,1.0,662.0,2017.0,,,,,,,,,
"1801-Rio-Grande-St,-Austin,-TX-78701","1801 Rio Grande St, Austin, TX 78701",1801 Rio Grande St,,Austin,TX,48,78701,Travis,453,30.28167,-97.744559,Apartment,1.0,1.0,650.0,1973.0,,,,,,,,,
"1833-Cheddar-Loop,-Austin,-TX-78728","1833 Cheddar Loop, Austin, TX 78728",1833 Cheddar Loop,,Austin,TX,48,78728,Travis,453,30.445833,-97.670888,Apartment,2.0,2.0,951.0,2013.0,,,,,,,,,
"2801-Wells-Branch-Pkwy,-Austin,-TX-78728","2801 Wells Branch Pkwy, Austin, TX 78728",2801 Wells Branch Pkwy,,Austin,TX,48,78728,Travis,453,30.439871,-97.689821,Single Family,1.0,1.0,698.0,1998.0,,,,,,,,,
"6934-E-Ben-White-Blvd,-Austin,-TX-78741","6934 E Ben White Blvd, Austin, TX 78741",6934 E Ben White Blvd,,Austin,TX,48,78741,Travis,453,30.216318,-97.703583,Apartment,1.0,1.0,850.0,2015.0,,,,,,,,,
"11701-Metric-Blvd,-Austin,-TX-78758","11701 Metric Blvd, Austin, TX 78758",11701 Metric Blvd,,Austin,TX,48,78758,Travis,453,30.396765,-97.704429,Apartment,1.0,1.0,481.0,1985.0,,,,,,,,,
"2716-Barton-Creek-Blvd,-Austin,-TX-78735","2716 Barton Creek Blvd, Austin, TX 78735",2716 Barton Creek Blvd,,Austin,TX,48,78735,Travis,453,30.29022,-97.8714,Apartment,1.0,1.0,775.0,1998.0,,,,,,,,,
"7330-Bluff-Springs-Rd,-Austin,-TX-78744","7330 Bluff Springs Rd, Austin, TX 78744",7330 Bluff Springs Rd,,Austin,TX,48,78744,Travis,453,30.180156,-97.771888,Apartment,1.0,1.0,750.0,2016.0,,,,,,,,,
"12148-Jollyville-Rd,-Austin,-TX-78759","12148 Jollyville Rd, Austin, TX 78759",12148 Jollyville Rd,,Austin,TX,48,78759,Travis,453,30.4292,-97.76457,Single Family,1.0,1.0,562.0,1986.0,,,,,,,,,
"4400-Ave-A,-Austin,-TX-78751","4400 Ave A, Austin, TX 78751",4400 Ave A,,Austin,TX,48,78751,Travis,453,30.309694,-97.73283,Apartment,0.0,1.0,,1972.0,,,,,,,,,
"11711-Domain-Dr,-Austin,-TX-78758","11711 Domain Dr, Austin, TX 78758",11711 Domain Dr,,Austin,TX,48,78758,Travis,453,30.40326,-97.72275,Apartment,0.0,1.0,531.0,2016.0,,,,,,,,,
"7607-Blessing-Ave,-Austin,-TX-78752","7607 Blessing Ave, Austin, TX 78752",7607 Blessing Ave,,Austin,TX,48,78752,Travis,453,30.332891,-97.690842,Apartment,1.0,1.0,699.0,2000.0,,,,,,,,,
"1000-1004-San-Marcos-St,-Austin,-TX-78702","1000-1004 San Marcos St, Austin, TX 78702",1000-1004 San Marcos St,,Austin,TX,48,78702,Travis,453,30.2689,-97.73131,Apartment,,,,2007.0,,,,,,,,,
"4210-Red-River-St,-Austin,-TX-78751","4210 Red River St, Austin, TX 78751",4210 Red River St,,Austin,TX,48,78751,Travis,453,30.302434,-97.721622,Apartment,0.0,1.0,400.0,1970.0,,,,,,,,,
"7880-Us-290-Hwy-W,-Austin,-TX-78736","7880 Us 290 Hwy W, Austin, TX 78736",7880 Us 290 Hwy W,,Austin,TX,48,78736,Travis,453,30.231262,-97.886918,Apartment,,,,2018.0,,,,,,,,,
"1735-Rutland-Dr,-Austin,-TX-78758","1735 Rutland Dr, Austin, TX 78758",1735 Rutland Dr,,Austin,TX,48,78758,Travis,453,30.37661,-97.71085,Apartment,1.0,1.0,550.0,1984.0,,,,,,,,,
"1801-Wells-Branch-Pkwy,-Austin,-TX-78728","1801 Wells Branch Pkwy, Austin, TX 78728",1801 Wells Branch Pkwy,,Austin,TX,48,78728,Travis,453,30.43502,-97.67551,Townhouse,1.0,1.0,547.0,1984.0,,,,,,,,,
"7900-San-Felipe-Blvd,-Austin,-TX-78729","7900 San Felipe Blvd, Austin, TX 78729",7900 San Felipe Blvd,,Austin,TX,48,78729,Williamson,491,30.438256,-97.766236,Apartment,1.0,1.0,550.0,1985.0,,,,,,,,,
"2601-Esperanza-Xing,-Austin,-TX-78758","2601 Esperanza Xing, Austin, TX 78758",2601 Esperanza Xing,,Austin,TX,48,78758,Travis,453,30.39685,-97.71853,Single Family,,,,2015.0,,,,,,,,,
"761-Trinity-Hills-Dr,-Austin,-TX-78737","761 Trinity Hills Dr, Austin, TX 78737",761 Trinity Hills Dr,,Austin,TX,48,78737,Hays,209,30.19977,-97.98162,Apartment,1.0,1.0,745.0,2015.0,,,,,,,,,
"9826-N-Lake-Creek-Pkwy,-Austin,-TX-78717","9826 N Lake Creek Pkwy, Austin, TX 78717",9826 N Lake Creek Pkwy,,Austin,TX,48,78717,Williamson,491,30.471418,-97.793958,Apartment,1.0,1.0,743.0,2014.0,,,,,,,,,
"420-Slaughter-Ln-W,-Austin,-TX-78748","420 Slaughter Ln W, Austin, TX 78748",420 Slaughter Ln W,,Austin,TX,48,78748,Travis,453,30.172571,-97.79709,Apartment,,,,2007.0,,,,,,,,,
"9345-E-State-Hwy,-290,-Austin,-TX-78724","9345 E State Hwy, 290, Austin, TX 78724",9345 E State Hwy,290,Austin,TX,48,78724,Travis,453,30.32882,-97.64202,Apartment,,,,2006.0,,,,,,,,,
"610-W-30th-St,-Austin,-TX-78705","610 W 30th St, Austin, TX 78705",610 W 30th St,,Austin,TX,48,78705,Travis,453,30.297637,-97.742774,Apartment,1.0,1.0,,1966.0,,,,,,,,,
"12113-Dessau-Rd,-Austin,-TX-78754","12113 Dessau Rd, Austin, TX 78754",12113 Dessau Rd,,Austin,TX,48,78754,Travis,453,30.383228,-97.649871,Condo,1.0,1.0,692.0,2020.0,,,,,,,,,
"9300-Northgate-Blvd,-Austin,-TX-78758","9300 Northgate Blvd, Austin, TX 78758",9300 Northgate Blvd,,Austin,TX,48,78758,Travis,453,30.36917,-97.71702,Apartment,,,,1973.0,,,,,,,,,
"3001-Scofield-Ridge-Pkwy,-Austin,-TX-78727","3001 Scofield Ridge Pkwy, Austin, TX 78727",3001 Scofield Ridge Pkwy,,Austin,TX,48,78727,Travis,453,30.429179,-97.699408,Apartment,1.0,1.0,638.0,2019.0,,,,,,,,,
"8021-N-Fm-620-Rd,-Austin,-TX-78726","8021 N Fm 620 Rd, Austin, TX 78726",8021 N Fm 620 Rd,,Austin,TX,48,78726,Travis,453,30.414589,-97.845883,Apartment,1.0,1.0,744.0,2001.0,{'unitCount': 288},"{'2013': {'year': 2013, 'value': 20100000, 'land': 3552863, 'improvements': 16547137}, '2014': {'year': 2014, 'value': 25710000, 'land': 3789720, 'improvements': 21920280}, '2016': {'year': 2016, 'value': 27231200, 'land': 3789720, 'improvements': 23441480}, '2017': {'year': 2017, 'value': 32975000, 'land': 5684580, 'improvements': 27290420}, '2018': {'year': 2018, 'value': 33950000, 'land': 5684580, 'improvements': 28265420}, '2019': {'year': 2019, 'value': 35930000, 'land': 7579440, 'improvements': 28350560}, '2020': {'year': 2020, 'value': 36150995, 'land': 7579440, 'improvements': 28571555}, '2021': {'year': 2021, 'value': 39722060, 'land': 7579440, 'improvements': 32142620}, '2022': {'year': 2022, 'value': 41614514, 'land': 7579440, 'improvements': 34035074}, '2023': {'year': 2023, 'value': 58300000, 'land': 7579440, 'improvements': 50720560}, '2025': {'year': 2025, 'value': 52580000, 'land': 7579440, 'improvements': 45000560}}","{'2013': {'year': 2013, 'total': 664194}, '2014': {'year': 2014, 'total': 686372}, '2016': {'year': 2016, 'total': 879411}, '2017': {'year': 2017, 'total': 924007}, '2018': {'year': 2018, 'total': 937354}, '2019': {'year': 2019, 'total': 952635}, '2020': {'year': 2020, 'total': 977308}, '2021': {'year': 2021, 'total': 1057992}, '2022': {'year': 2022, 'total': 1378364}, '2023': {'year': 2023, 'total': 1200074}, '2025': {'year': 2025, 'total': 1108932}}",,,,,,
"11441-N-Ih-35,-Austin,-TX-78753","11441 N Ih 35, Austin, TX 78753",11441 N Ih 35,,Austin,TX,48,78753,Travis,453,30.37923,-97.67338,Apartment,,,,1986.0,,,,,,,,,
"E-5th-St-And-Waller-St,-Austin,-TX-78702","E 5th St And Waller St, Austin, TX 78702",E 5th St And Waller St,,Austin,TX,48,78702,Travis,453,30.26278,-97.73069,Apartment,,,,2019.0,,,,,,,,,
"4646-Mueller-Blvd,-Austin,-TX-78723","4646 Mueller Blvd, Austin, TX 78723",4646 Mueller Blvd,,Austin,TX,48,78723,Travis,453,30.300121,-97.707452,Apartment,1.0,1.0,717.0,2013.0,,,,,,,,,
"2511-W-Braker-Ln,-Austin,-TX-78758","2511 W Braker Ln, Austin, TX 78758",2511 W Braker Ln,,Austin,TX,48,78758,Travis,453,30.389721,-97.718509,Apartment,0.0,1.0,468.0,2019.0,,,,,,,,,
"9971-Quail-Blvd,-Austin,-TX-78758","9971 Quail Blvd, Austin, TX 78758",9971 Quail Blvd,,Austin,TX,48,78758,Travis,453,30.37047,-97.70029,Apartment,,,,1985.0,,,,,,,,,
"3050-Tamarron-Blvd,-Austin,-TX-78746","3050 Tamarron Blvd, Austin, TX 78746",3050 Tamarron Blvd,,Austin,TX,48,78746,Travis,453,30.258422,-97.800823,Apartment,1.0,1.0,637.0,1994.0,,,,,,,,,
"3544-Ranch-Rd,-620-S,-Austin,-TX-78738","3544 Ranch Rd, 620 S, Austin, TX 78738",3544 Ranch Rd,620 S,Austin,TX,48,78738,Travis,453,30.321925,-97.956218,Apartment,,,,2014.0,,,,,,,,,
"2208-N-FM-620,-Austin,-TX-78734","2208 N FM 620, Austin, TX 78734",2208 N FM 620,,Austin,TX,48,78734,Travis,453,30.384758,-97.942935,Apartment,,,,2018.0,,,,,,,,,
"8810-Tallwood-Dr,-Austin,-TX-78759","8810 Tallwood Dr, Austin, TX 78759",8810 Tallwood Dr,,Austin,TX,48,78759,Travis,453,30.379667,-97.742523,Apartment,1.0,1.0,700.0,1974.0,,,,,,,,,
"422-W-Riverside-Dr,-Austin,-TX-78704","422 W Riverside Dr, Austin, TX 78704",422 W Riverside Dr,,Austin,TX,48,78704,Travis,453,30.259802,-97.748792,Apartment,1.0,1.0,497.0,2016.0,,,,,,,,,
"2401-Aldrich-St,-Austin,-TX-78723","2401 Aldrich St, Austin, TX 78723",2401 Aldrich St,,Austin,TX,48,78723,Travis,453,30.302178,-97.701851,Apartment,1.0,1.0,699.0,2017.0,,,,,,,,,
"4600-W-Guadalupe-St,-Austin,-TX-78751","4600 W Guadalupe St, Austin, TX 78751",4600 W Guadalupe St,,Austin,TX,48,78751,Travis,453,30.31431,-97.73299,Apartment,1.0,1.0,714.0,2005.0,,,,,,,,,
"1200-Mearns-Meadow-Blvd,-Austin,-TX-78758","1200 Mearns Meadow Blvd, Austin, TX 78758",1200 Mearns Meadow Blvd,,Austin,TX,48,78758,Travis,453,30.371572,-97.701839,Apartment,0.0,1.0,396.0,1984.0,,,,,,,,,
"9811-Copper-Creek-Dr,-Austin,-TX-78729","9811 Copper Creek Dr, Austin, TX 78729",9811 Copper Creek Dr,,Austin,TX,48,78729,Williamson,491,30.45724,-97.7875,Apartment,0.0,1.0,422.0,1996.0,"{'architectureType': 'Multi-Unit Building', 'cooling': True, 'coolingType': 'Central', 'exteriorType': 'Brick Veneer', 'floorCount': 2, 'foundationType': 'Slab / Mat / Raft', 'heating': True, 'heatingType': 'Central', 'roomCount': 10, 'unitCount': 1}","{'2018': {'year': 2018, 'value': 226958, 'land': 42151, 'improvements': 184807}}","{'2018': {'year': 2018, 'total': 4513}}",12545.0,R351319,"S6189 - ANDERSON MILL VILLAGE SOUTH SEC 2-B, BLOCK B, LOT 2, ACRES 0.288",ANDERSON MILL VILLAGE SOUTH SE,"{'names': [''], 'mailingAddress': {'id': '100-Bush-St,-STE-1625,-San-Francisco,-CA-94104', 'addressLine1': '100 Bush St', 'addressLine2': 'STE 1625', 'city': 'San Francisco', 'state': 'CA', 'stateFips': '06', 'zipCode': '94104'}}",False
"1500-S-Lamar-Blvd,-Austin,-TX-78704","1500 S Lamar Blvd, Austin, TX 78704",1500 S Lamar Blvd,,Austin,TX,48,78704,Travis,453,30.252921,-97.764858,Apartment,1.0,1.0,803.0,2012.0,,,,,,,,,
"5401-E-Parmer-Ln,-Austin,-TX-78754","5401 E Parmer Ln, Austin, TX 78754",5401 E Parmer Ln,,Austin,TX,48,78754,Travis,453,30.367917,-97.618575,Apartment,1.0,1.0,776.0,2019.0,,,,,,,,,
"3320-Harmon-Ave,-Austin,-TX-78705","3320 Harmon Ave, Austin, TX 78705",3320 Harmon Ave,,Austin,TX,48,78705,Travis,453,30.29208,-97.72323,Apartment,1.0,1.0,699.0,2016.0,,,,,,,,,
"11028-Jollyville-Rd,-Austin,-TX-78759","11028 Jollyville Rd, Austin, TX 78759",11028 Jollyville Rd,,Austin,TX,48,78759,Travis,453,30.405864,-97.748876,Apartment,1.0,1.0,582.0,1984.0,,,,,,,,,
"7707-S-Interstate-35-Hwy,-Austin,-TX-78744","7707 S Interstate 35 Hwy, Austin, TX 78744",7707 S Interstate 35 Hwy,,Austin,TX,48,78744,Travis,453,30.178964,-97.774409,Apartment,,,,2001.0,,,,,,,,,
"9239-Amberglen-Blvd,-Austin,-TX-78729","9239 Amberglen Blvd, Austin, TX 78729",9239 Amberglen Blvd,,Austin,TX,48,78729,Williamson,491,30.466971,-97.770954,Apartment,1.0,1.0,760.0,2017.0,,,,,,,,,
"8000-Highway,-290-W,-Austin,-TX-78736","8000 Highway, 290 W, Austin, TX 78736",8000 Highway,290 W,Austin,TX,48,78736,Travis,453,30.231962,-97.891483,Apartment,1.0,1.0,608.0,2016.0,,,,,,,,,
"3625-Duval-Rd,-Austin,-TX-78759","3625 Duval Rd, Austin, TX 78759",3625 Duval Rd,,Austin,TX,48,78759,Travis,453,30.4108,-97.72261,Apartment,1.0,1.0,700.0,1995.0,,,,,,,,,
"2515-Elmont-Dr,-Austin,-TX-78741","2515 Elmont Dr, Austin, TX 78741",2515 Elmont Dr,,Austin,TX,48,78741,Travis,453,30.238749,-97.720761,Apartment,1.0,1.0,644.0,2017.0,,,,,,,,,
"8818-Travis-Hills-Dr,-Austin,-TX-78735","8818 Travis Hills Dr, Austin, TX 78735",8818 Travis Hills Dr,,Austin,TX,48,78735,Travis,453,30.259957,-97.891832,Apartment,1.0,1.0,807.0,2005.0,,,,,,,,,
"12531-W-State-Hwy,-71,-Austin,-TX-78738","12531 W State Hwy, 71, Austin, TX 78738",12531 W State Hwy,71,Austin,TX,48,78738,Travis,453,30.30229,-97.93362,Apartment,,,,2007.0,,,,,,,,,
"1302-24th-St-W,-Austin,-TX-78705","1302 24th St W, Austin, TX 78705",1302 24th St W,,Austin,TX,48,78705,Travis,453,30.288863,-97.752069,Apartment,1.0,1.0,,1968.0,,,,,,,,,
"1800-E-Stassney-Ln,-Austin,-TX-78744","1800 E Stassney Ln, Austin, TX 78744",1800 E Stassney Ln,,Austin,TX,48,78744,Travis,453,30.198076,-97.761731,Apartment,1.0,1.0,618.0,1984.0,,,,,,,,,
"7655-N-Ranch-Rd,-620,-Austin,-TX-78726","7655 N Ranch Rd, 620, Austin, TX 78726",7655 N Ranch Rd,620,Austin,TX,48,78726,Travis,453,30.40643,-97.85038,Apartment,,,,2001.0,,,,,,,,,
"8515-S-Interstate-35,---35,-Austin,-TX-78744","8515 S Interstate 35, # 35, Austin, TX 78744",8515 S Interstate 35,# 35,Austin,TX,48,78744,Travis,453,30.17098,-97.78206,Apartment,,,,2008.0,,,,,,,,,
"6511-Melrose-Trl,-Austin,-TX-78727","6511 Melrose Trl, Austin, TX 78727",6511 Melrose Trl,,Austin,TX,48,78727,Travis,453,30.439264,-97.748811,Apartment,2.0,2.0,900.0,1984.0,{'unitCount': 132},,,,,,,,
"10500-S-Interstate-35,-Austin,-TX-78748","10500 S Interstate 35, Austin, TX 78748",10500 S Interstate 35,,Austin,TX,48,78748,Travis,453,30.148567,-97.795568,Apartment,3.0,2.0,1367.0,2020.0,,,,,,,,,
"9024-Northgate-Blvd,-Austin,-TX-78758","9024 Northgate Blvd, Austin, TX 78758",9024 Northgate Blvd,,Austin,TX,48,78758,Travis,453,30.370426,-97.718241,Apartment,1.0,1.0,484.0,2011.0,,,,,,,,,
"11015-Four-Points-Dr,-Austin,-TX-78726","11015 Four Points Dr, Austin, TX 78726",11015 Four Points Dr,,Austin,TX,48,78726,Travis,453,30.3994,-97.84637,Apartment,1.0,1.0,,2017.0,,,,,,,,,
"3209-S-Interstate-35,---35,-Austin,-TX-78741","3209 S Interstate 35, # 35, Austin, TX 78741",3209 S Interstate 35,# 35,Austin,TX,48,78741,Travis,453,30.22337,-97.74392,Apartment,,,,1980.0,,,,,,,,,
"13535-Lyndhurst-St,-Austin,-TX-78717","13535 Lyndhurst St, Austin, TX 78717",13535 Lyndhurst St,,Austin,TX,48,78717,Williamson,491,30.476263,-97.784523,Apartment,0.0,1.0,599.0,2016.0,,,,,,,,,
"401-Guadalupe-St,-Austin,-TX-78701","401 Guadalupe St, Austin, TX 78701",401 Guadalupe St,,Austin,TX,48,78701,Travis,453,30.267494,-97.746613,Apartment,0.0,1.0,532.0,2019.0,,,,,,,,,
"1221-Algarita-Ave,-Austin,-TX-78704","1221 Algarita Ave, Austin, TX 78704",1221 Algarita Ave,,Austin,TX,48,78704,Travis,453,30.23737,-97.7415,Apartment,1.0,1.0,664.0,1971.0,,,,,,,,,
"601-W-11th-St,-Austin,-TX-78701","601 W 11th St, Austin, TX 78701",601 W 11th St,,Austin,TX,48,78701,Travis,453,30.27418,-97.74733,Apartment,1.0,1.0,696.0,1959.0,,,,38089.0,,,,,
"1845-Burton-Dr,-Austin,-TX-78741","1845 Burton Dr, Austin, TX 78741",1845 Burton Dr,,Austin,TX,48,78741,Travis,453,30.234678,-97.729431,Apartment,0.0,1.0,500.0,1972.0,,,,,,,,,
"13425-N-FM-620,-Austin,-TX-78717","13425 N FM 620, Austin, TX 78717",13425 N FM 620,,Austin,TX,48,78717,Williamson,491,30.4711,-97.78495,Single Family,1.0,1.0,,2001.0,{'unitCount': 232},,,,,,,,
"2301-S-Mo-Pac-Expy,-Austin,-TX-78746","2301 S Mo Pac Expy, Austin, TX 78746",2301 S Mo Pac Expy,,Austin,TX,48,78746,Travis,453,30.254985,-97.798719,Single Family,1.0,1.0,,,,,,,,,,,
"7500-S-Interstate-35,-Austin,-TX-78745","7500 S Interstate 35, Austin, TX 78745",7500 S Interstate 35,,Austin,TX,48,78745,Travis,453,30.18221,-97.77749,Apartment,,,,2013.0,,,,,,,,,
"12408-Dessau-Rd,-Austin,-TX-78754","12408 Dessau Rd, Austin, TX 78754",12408 Dessau Rd,,Austin,TX,48,78754,Travis,453,30.38947,-97.64891,Apartment,1.0,1.0,633.0,2019.0,,,,,,,,,
"8600-FM-620-N,-Austin,-TX-78726","8600 FM 620 N, Austin, TX 78726",8600 FM 620 N,,Austin,TX,48,78726,Travis,453,30.426542,-97.847274,Apartment,,,,2002.0,,,,,,,,,
"6701-Rialto-Blvd,-Austin,-TX-78735","6701 Rialto Blvd, Austin, TX 78735",6701 Rialto Blvd,,Austin,TX,48,78735,Travis,453,30.247526,-97.861571,Apartment,0.0,1.0,548.0,2018.0,,,,,,,,,
"110-San-Antonio-St,-Austin,-TX-78701","110 San Antonio St, Austin, TX 78701",110 San Antonio St,,Austin,TX,48,78701,Travis,453,30.265288,-97.749468,Apartment,1.0,1.0,548.0,2015.0,,,,,,,,,
"1601-Royal-Crest-Dr,-Austin,-TX-78741","1601 Royal Crest Dr, Austin, TX 78741",1601 Royal Crest Dr,,Austin,TX,48,78741,Travis,453,30.23767,-97.72928,Apartment,,,,,,,,,,,,,
"6601-Rialto-Blvd,-Austin,-TX-78735","6601 Rialto Blvd, Austin, TX 78735",6601 Rialto Blvd,,Austin,TX,48,78735,Travis,453,30.24684,-97.857841,Apartment,0.0,1.0,544.0,2017.0,,,,,,,,,
"615-Wonsley-Dr-E,-Austin,-TX-78753","615 Wonsley Dr E, Austin, TX 78753",615 Wonsley Dr E,,Austin,TX,48,78753,Travis,453,30.343342,-97.699865,Apartment,1.0,1.0,,1968.0,,,,,,,,,
"11624-Jollyville-Rd,-Austin,-TX-78759","11624 Jollyville Rd, Austin, TX 78759",11624 Jollyville Rd,,Austin,TX,48,78759,Travis,453,30.41681,-97.75089,Apartment,,,,1996.0,,,,,,,,,
"918-920-E-40th-St,-Austin,-TX-78751","918-920 E 40th St, Austin, TX 78751",918-920 E 40th St,,Austin,TX,48,78751,Travis,453,30.29804,-97.72103,Apartment,0.0,1.0,,1969.0,,,,,,,,,
"115-Sandra-Muraida-Way,-Austin,-TX-78703","115 Sandra Muraida Way, Austin, TX 78703",115 Sandra Muraida Way,,Austin,TX,48,78703,Travis,453,30.26771,-97.754978,Apartment,1.0,1.0,620.0,2009.0,,,,,,,,,
"3220-Duval-Rd,-Austin,-TX-78759","3220 Duval Rd, Austin, TX 78759",3220 Duval Rd,,Austin,TX,48,78759,Travis,453,30.411711,-97.715297,Apartment,0.0,1.0,375.0,1986.0,,,,,,,,,
"4701-Staggerbrush-Rd,-Austin,-TX-78749","4701 Staggerbrush Rd, Austin, TX 78749",4701 Staggerbrush Rd,,Austin,TX,48,78749,Travis,453,30.234676,-97.837893,Apartment,0.0,1.0,498.0,1995.0,,,,,,,,,
"11400-Domain-Dr,-Austin,-TX-78758","11400 Domain Dr, Austin, TX 78758",11400 Domain Dr,,Austin,TX,48,78758,Travis,453,30.40067,-97.72528,Apartment,1.0,1.0,678.0,2007.0,,,,,,,,,
"1201-Lady-Bird-Ln,-Austin,-TX-78741","1201 Lady Bird Ln, Austin, TX 78741",1201 Lady Bird Ln,,Austin,TX,48,78741,Travis,453,30.242514,-97.722511,Apartment,0.0,1.0,378.0,2015.0,,,,,,,,,
"2101-Burton-Dr,-Austin,-TX-78741","2101 Burton Dr, Austin, TX 78741",2101 Burton Dr,,Austin,TX,48,78741,Travis,453,30.233306,-97.733016,Apartment,1.0,1.0,700.0,1973.0,,,,,,,,,
"1020-45th-St-E,-Austin,-TX-78751","1020 45th St E, Austin, TX 78751",1020 45th St E,,Austin,TX,48,78751,Travis,453,30.304251,-97.716881,Apartment,,1.0,,1968.0,,,,,,,,,
"13500-Lyndhurst-St,-Austin,-TX-78717","13500 Lyndhurst St, Austin, TX 78717",13500 Lyndhurst St,,Austin,TX,48,78717,Williamson,491,30.47652,-97.78759,Apartment,0.0,1.0,504.0,2019.0,,,,,,,,,
"2239-Cromwell-Cir,-Austin,-TX-78741","2239 Cromwell Cir, Austin, TX 78741",2239 Cromwell Cir,,Austin,TX,48,78741,Travis,453,30.228458,-97.718132,Apartment,1.0,1.0,475.0,1987.0,,,,,,,,,
"11001-S-1st-St,-Austin,-TX-78748","11001 S 1st St, Austin, TX 78748",11001 S 1st St,,Austin,TX,48,78748,Travis,453,30.145019,-97.802178,Apartment,1.0,1.0,727.0,2012.0,,,,,,,,,
"2200-W-North-Loop-Blvd,-Austin,-TX-78756","2200 W North Loop Blvd, Austin, TX 78756",2200 W North Loop Blvd,,Austin,TX,48,78756,Travis,453,30.32767,-97.74207,Apartment,1.0,1.0,700.0,1971.0,,,,,,,,,
"333-E-Slaughter-Ln,-Austin,-TX-78744","333 E Slaughter Ln, Austin, TX 78744",333 E Slaughter Ln,,Austin,TX,48,78744,Travis,453,30.16576,-97.78104,Apartment,,,,2003.0,,,,,,,,,
"4818-Berkman-Dr,-Austin,-TX-78723","4818 Berkman Dr, Austin, TX 78723",4818 Berkman Dr,,Austin,TX,48,78723,Travis,453,30.302003,-97.70073,Apartment,1.0,1.0,615.0,2017.0,,,,,,,,,
"3401-W-Parmer-Ln,-Austin,-TX-78727","3401 W Parmer Ln, Austin, TX 78727",3401 W Parmer Ln,,Austin,TX,48,78727,Travis,453,30.421386,-97.710945,Apartment,1.0,1.0,650.0,1995.0,,,,,,,,,
"4009-Victory-Dr,-Austin,-TX-78704","4009 Victory Dr, Austin, TX 78704",4009 Victory Dr,,Austin,TX,48,78704,Travis,453,30.234654,-97.790632,Apartment,0.0,1.0,396.0,1984.0,,,,,,,,,
"4413-Speedway,-Austin,-TX-78751","4413 Speedway, Austin, TX 78751",4413 Speedway,,Austin,TX,48,78751,Travis,453,30.308247,-97.72826,Apartment,1.0,1.0,,1968.0,,,,,,,,,
"10800-Lakeline-Blvd,-Austin,-TX-78717","10800 Lakeline Blvd, Austin, TX 78717",10800 Lakeline Blvd,,Austin,TX,48,78717,Williamson,491,30.482529,-97.793598,Apartment,1.0,1.0,683.0,2012.0,,,,,,,,,
"10500-Lakeline-Mall-Dr,-Austin,-TX-78717","10500 Lakeline Mall Dr, Austin, TX 78717",10500 Lakeline Mall Dr,,Austin,TX,48,78717,Williamson,491,30.477986,-97.790909,Condo,1.0,1.0,775.0,2014.0,,,,,,,,,
"4700-N-Capital-Of-Texas-Hwy,-Austin,-TX-78746","4700 N Capital Of Texas Hwy, Austin, TX 78746",4700 N Capital Of Texas Hwy,,Austin,TX,48,78746,Travis,453,30.34561,-97.80201,Apartment,1.0,1.0,771.0,2003.0,,,,,,,,,
"300-E-Riverside-Dr,-Apt-203,-Austin,-TX-78704","300 E Riverside Dr, Apt 203, Austin, TX 78704",300 E Riverside Dr,Apt 203,Austin,TX,48,78704,Travis,453,30.254595,-97.743294,Apartment,1.0,1.0,692.0,,,,,,,,,,
"8818-Travis-Hills-Dr,-Apt-526,-Austin,-TX-78735","8818 Travis Hills Dr, Apt 526, Austin, TX 78735",8818 Travis Hills Dr,Apt 526,Austin,TX,48,78735,Travis,453,30.258568,-97.891076,Apartment,3.0,2.0,1327.0,,,,,,,,,,
"6307-Bluff-Springs-Rd,-Apt-827,-Austin,-TX-78744","6307 Bluff Springs Rd, Apt 827, Austin, TX 78744",6307 Bluff Springs Rd,Apt 827,Austin,TX,48,78744,Travis,453,30.191459,-97.765656,Condo,2.0,2.0,1116.0,,,,,,,,,,
"8800-S-1st-St,-Austin,-TX-78748","8800 S 1st St, Austin, TX 78748",8800 S 1st St,,Austin,TX,48,78748,Travis,453,30.175601,-97.799588,Apartment,1.0,1.0,629.0,2015.0,,,,,,,,,
"3200-S-1st-St,-Apt-106,-Austin,-TX-78704","3200 S 1st St, Apt 106, Austin, TX 78704",3200 S 1st St,Apt 106,Austin,TX,48,78704,Travis,453,30.233954,-97.768032,Apartment,1.0,1.0,672.0,,,,,,,,,,
"4500-Steiner-Ranch-Blvd,-Austin,-TX-78732","4500 Steiner Ranch Blvd, Austin, TX 78732",4500 Steiner Ranch Blvd,,Austin,TX,48,78732,Travis,453,30.382612,-97.879639,Apartment,1.0,1.0,1054.0,2010.0,,,,,,,,,
"10800-Lakeline-Blvd,-Unit-301,-Austin,-TX-78717","10800 Lakeline Blvd, Unit 301, Austin, TX 78717",10800 Lakeline Blvd,Unit 301,Austin,TX,48,78717,Williamson,491,30.482453,-97.79353,Apartment,2.0,2.0,1205.0,,,,,,,,,,
"10707-Lake-Creek-Pkwy,-Apt-302,-Austin,-TX-78750","10707 Lake Creek Pkwy, Apt 302, Austin, TX 78750",10707 Lake Creek Pkwy,Apt 302,Austin,TX,48,78750,Williamson,491,30.454667,-97.804828,Condo,3.0,2.0,1064.0,,,,,,,,,,
"507-Pressler-St,-Unit-77442,-Austin,-TX-78703","507 Pressler St, Unit 77442, Austin, TX 78703",507 Pressler St,Unit 77442,Austin,TX,48,78703,Travis,453,30.273164,-97.760147,Condo,1.0,1.0,786.0,,,,,,,,,,
"10307-Morado-Cv,-Apt-101,-Austin,-TX-78759","10307 Morado Cv, Apt 101, Austin, TX 78759",10307 Morado Cv,Apt 101,Austin,TX,48,78759,Travis,453,30.401959,-97.752591,Apartment,1.0,1.0,640.0,,,,,,,,,,
"1007-S-Congress-Ave,-Austin,-TX-78704","1007 S Congress Ave, Austin, TX 78704",1007 S Congress Ave,,Austin,TX,48,78704,Travis,453,30.254077,-97.74767,Apartment,1.0,1.0,937.0,1999.0,,,,,,,,,
"3300-W-Wells-Branch-Pkwy,-Austin,-TX-78728","3300 W Wells Branch Pkwy, Austin, TX 78728",3300 W Wells Branch Pkwy,,Austin,TX,48,78728,Travis,453,30.44178,-97.695632,Apartment,,,,2015.0,,,,,,,,,
"311-Bowie-St,-Austin,-TX-78703","311 Bowie St, Austin, TX 78703",311 Bowie St,,Austin,TX,48,78703,Travis,453,30.269233,-97.753,Apartment,0.0,1.0,534.0,2015.0,,,,,,,,,
"4719-Harmon-Ave,-Austin,-TX-78751","4719 Harmon Ave, Austin, TX 78751",4719 Harmon Ave,,Austin,TX,48,78751,Travis,453,30.30648,-97.71371,Apartment,1.0,1.0,550.0,1962.0,{'unitCount': 74},,,,,,,,
"4546-Ave-A,-Austin,-TX-78751","4546 Ave A, Austin, TX 78751",4546 Ave A,,Austin,TX,48,78751,Travis,453,30.311497,-97.731636,Apartment,0.0,1.0,,1968.0,,,,,,,,,
"10610-Morado-Cir,-Apt-201,-Austin,-TX-78759","10610 Morado Cir, Apt 201, Austin, TX 78759",10610 Morado Cir,Apt 201,Austin,TX,48,78759,Travis,453,30.404988,-97.752557,Apartment,2.0,2.0,820.0,,,,,,,,,,
"4305-Duval-St,-Apt-202,-Austin,-TX-78751","4305 Duval St, Apt 202, Austin, TX 78751",4305 Duval St,Apt 202,Austin,TX,48,78751,Travis,453,30.304869,-97.725007,Condo,2.0,2.0,935.0,,,,,,,,,,
"311-Bowie-St,-Unit-100742,-Austin,-TX-78703","311 Bowie St, Unit 100742, Austin, TX 78703",311 Bowie St,Unit 100742,Austin,TX,48,78703,Travis,453,30.269233,-97.753,Apartment,2.0,2.0,1502.0,2014.0,,,,,,,,,
"1020-E-45th-St,-Apt-201,-Austin,-TX-78751","1020 E 45th St, Apt 201, Austin, TX 78751",1020 E 45th St,Apt 201,Austin,TX,48,78751,Travis,453,30.303988,-97.717777,Condo,2.0,1.0,832.0,,,,,,,,,,
"3501-S-1st-St,-Apt-101,-Austin,-TX-78704","3501 S 1st St, Apt 101, Austin, TX 78704",3501 S 1st St,Apt 101,Austin,TX,48,78704,Travis,453,30.231363,-97.766331,Apartment,1.0,1.0,630.0,,,,,,,,,,
"8615-Rockwood-Ln,-Apt-102,-Austin,-TX-78757","8615 Rockwood Ln, Apt 102, Austin, TX 78757",8615 Rockwood Ln,Apt 102,Austin,TX,48,78757,Travis,453,30.368666,-97.729275,Apartment,1.0,2.0,925.0,,,,,,,,,,
"3111-Parker-Ln,-Apt-103,-Austin,-TX-78741","3111 Parker Ln, Apt 103, Austin, TX 78741",3111 Parker Ln,Apt 103,Austin,TX,48,78741,Travis,453,30.223428,-97.740936,Apartment,1.0,1.0,474.0,,,,,,,,,,
"1500-Royal-Crest-Dr,-Apt-207,-Austin,-TX-78741","1500 Royal Crest Dr, Apt 207, Austin, TX 78741",1500 Royal Crest Dr,Apt 207,Austin,TX,48,78741,Travis,453,30.240965,-97.730405,Condo,2.0,2.0,1026.0,,,,,,,,,,
"10011-Stonelake-Blvd,-Unit-1018920,-Austin,-TX-78759","10011 Stonelake Blvd, Unit 1018920, Austin, TX 78759",10011 Stonelake Blvd,Unit 1018920,Austin,TX,48,78759,Travis,453,30.392455,-97.738155,Apartment,2.0,2.0,1144.0,,,,,,,,,,
"3214-Crosscreek-Dr,-Apt-102,-Austin,-TX-78757","3214 Crosscreek Dr, Apt 102, Austin, TX 78757",3214 Crosscreek Dr,Apt 102,Austin,TX,48,78757,Travis,453,30.371489,-97.7369,Townhouse,2.0,1.5,1100.0,,,,,,,,,,
"1903-Anita-Dr,-Apt-1,-Austin,-TX-78704","1903 Anita Dr, Apt 1, Austin, TX 78704",1903 Anita Dr,Apt 1,Austin,TX,48,78704,Travis,453,30.254171,-97.771327,Apartment,0.0,1.0,,,,,,,,,,,
"1221-S-Congress-Ave,-Apt-1332,-Austin,-TX-78704","1221 S Congress Ave, Apt 1332, Austin, TX 78704",1221 S Congress Ave,Apt 1332,Austin,TX,48,78704,Travis,453,30.251697,-97.748731,Apartment,1.0,1.0,699.0,,,,,,,,,,
"2336-Douglas-St,-Apt-106,-Austin,-TX-78741","2336 Douglas St, Apt 106, Austin, TX 78741",2336 Douglas St,Apt 106,Austin,TX,48,78741,Travis,453,30.228752,-97.733688,Apartment,1.0,1.0,527.0,,,,,,,,,,
"127-E-Riverside-Dr,-Apt-202,-Austin,-TX-78704","127 E Riverside Dr, Apt 202, Austin, TX 78704",127 E Riverside Dr,Apt 202,Austin,TX,48,78704,Travis,453,30.255898,-97.745807,Apartment,2.0,2.0,1158.0,,,,,,,,,,
"2412-Richcreek-Rd,-Apt-105,-Austin,-TX-78757","2412 Richcreek Rd, Apt 105, Austin, TX 78757",2412 Richcreek Rd,Apt 105,Austin,TX,48,78757,Travis,453,30.351067,-97.734744,Apartment,0.0,1.0,400.0,,,,,,,,,,
"2801-Skyway-Cir,-Apt-103,-Austin,-TX-78704","2801 Skyway Cir, Apt 103, Austin, TX 78704",2801 Skyway Cir,Apt 103,Austin,TX,48,78704,Travis,453,30.245163,-97.781713,Apartment,1.0,1.5,1806.0,1968.0,,,,,,,,,
"1304-Summer-Oak-Dr,-Austin,-TX-78704","1304 Summer Oak Dr, Austin, TX 78704",1304 Summer Oak Dr,,Austin,TX,48,78704,Travis,453,30.230979,-97.779308,Apartment,0.0,1.0,400.0,1978.0,,,,,,,,,
"2400-E-6th-St,-Austin,-TX-78702","2400 E 6th St, Austin, TX 78702",2400 E 6th St,,Austin,TX,48,78702,Travis,453,30.259822,-97.715892,Apartment,0.0,1.0,584.0,2018.0,,,,,,,,,
"2311-S-5th-St,-Apt-102,-Austin,-TX-78704","2311 S 5th St, Apt 102, Austin, TX 78704",2311 S 5th St,Apt 102,Austin,TX,48,78704,Travis,453,30.244393,-97.764206,Apartment,1.0,1.0,679.0,,,,,,,,,,
"501-West-Ave,-Apt-2802,-Austin,-TX-78701","501 West Ave, Apt 2802, Austin, TX 78701",501 West Ave,Apt 2802,Austin,TX,48,78701,Travis,453,30.269536,-97.750525,Condo,1.0,1.5,846.0,2018.0,,,,,,,,,
